timestamp,latitude,longitude,speed,heading,acc_x,acc_y,acc_z,gyro_x,gyro_y,gyro_z,roll,pitch,yaw
0,12.9,77.50001,5.0,90.0,0.02,0.01,9.8,0.001,0.001,0.002,0.0,0.0,90.0
1,12.899999999994183,77.50002,5.0,90.0000333332716,0.02,0.01,9.8,0.001,0.001,0.002,0.03999733338666616,0.014285228382023339,90.0000333332716
2,12.89999999997673,77.50003000000001,5.0,90.00009999944444,0.02,0.01,9.8,0.001,0.001,0.002,0.07997866837326832,0.028567541460896143,90.00009999944444
3,12.899999999941825,77.50004000000001,5.0,90.00019999777778,0.02,0.01,9.8,0.001,0.001,0.002,0.11992801295888919,0.04284402452841759,90.00019999777778
4,12.899999999883649,77.50005000000002,5.0,90.00033332716053,0.02,0.01,9.8,0.001,0.001,0.002,0.1598293879383454,0.057111764066164854,90.00033332716053
5,12.899999999796385,77.50006000000002,5.0,90.00049998611125,0.02,0.01,9.8,0.001,0.001,0.002,0.1996668332936563,0.07136784834007859,90.00049998611125
6,12.899999999674217,77.50007000000002,5.0,90.00069997277818,0.02,0.01,9.8,0.001,0.001,0.002,0.23942441457783872,0.08560936799468429,90.00069997277818
7,12.899999999511328,77.50008000000003,5.0,90.00093328493925,0.02,0.01,9.8,0.001,0.001,0.002,0.279086229288473,0.09983341664682815,90.00093328493925
8,12.899999999301903,77.50009000000003,5.0,90.00119992000211,0.02,0.01,9.8,0.001,0.001,0.002,0.31863641322849195,0.11403709147880647,90.00119992000211
9,12.899999999040125,77.50010000000003,5.0,90.00149987500413,0.02,0.01,9.8,0.001,0.001,0.002,0.35805914685164836,0.1282174938307673,90.00149987500413
10,12.89999999872018,77.50011000000002,5.0,90.0018331466125,0.02,0.01,9.8,0.001,0.001,0.002,0.39733866159012243,0.14237172979226365,90.0018331466125
11,12.899999998336254,77.50012000000001,5.0,90.0021997311242,0.02,0.01,9.8,0.001,0.001,0.002,0.43645924616173865,0.1564969107928374,90.0021997311242
12,12.899999997882533,77.50013,5.0,90.00259962446606,0.02,0.01,9.8,0.001,0.001,0.002,0.47540525285426916,0.1705901541915134,90.00259962446606
13,12.899999997353206,77.50013999999999,5.0,90.00303282219484,0.02,0.01,9.8,0.001,0.001,0.002,0.5141611037843102,0.1846485838650837,90.00303282219484
14,12.899999996742459,77.50014999999996,5.0,90.00349931949724,0.02,0.01,9.8,0.001,0.001,0.002,0.5527112971282275,0.19866933079506122,90.00349931949724
15,12.899999996044482,77.50015999999994,5.0,90.00399911118994,0.02,0.01,9.8,0.001,0.001,0.002,0.5910404133226791,0.21264953365318406,90.00399911118994
16,12.899999995253465,77.50016999999991,5.0,90.00453219171972,0.02,0.01,9.8,0.001,0.001,0.002,0.6291331212322355,0.22658633938534994,90.00453219171972
17,12.899999994363599,77.50017999999987,5.0,90.00509855516347,0.02,0.01,9.8,0.001,0.001,0.002,0.6669741842816288,0.2404769037938623,90.00509855516347
18,12.899999993369077,77.50018999999982,5.0,90.00569819522826,0.02,0.01,9.8,0.001,0.001,0.002,0.7045484665501799,0.25431839211786883,90.00569819522826
19,12.89999999226409,77.50019999999975,5.0,90.00633110525143,0.02,0.01,9.8,0.001,0.001,0.002,0.7418409388259654,0.26810797961187444,90.00633110525143
20,12.899999991042835,77.50020999999968,5.0,90.00699727820067,0.02,0.01,9.8,0.001,0.001,0.002,0.778836684617301,0.28184285212220994,90.00699727820067
21,12.899999989699506,77.50021999999959,5.0,90.00769670667405,0.02,0.01,9.8,0.001,0.001,0.002,0.8155209061191403,0.29552020666133955,90.00769670667405
22,12.8999999882283,77.50022999999948,5.0,90.00842938290015,0.02,0.01,9.8,0.001,0.001,0.002,0.8518789301319992,0.3091372519798892,90.00842938290015
23,12.899999986623419,77.50023999999935,5.0,90.00919529873812,0.02,0.01,9.8,0.001,0.001,0.002,0.8878962139310396,0.32269120913627986,90.00919529873812
24,12.89999998487906,77.5002499999992,5.0,90.00999444567782,0.02,0.01,9.8,0.001,0.001,0.002,0.9235583510829657,0.33617931206384843,90.00999444567782
25,12.899999982989424,77.50025999999902,5.0,90.01082681483982,0.02,0.01,9.8,0.001,0.001,0.002,0.958851077208406,0.34959880813534205,90.01082681483982
26,12.899999980948715,77.5002699999988,5.0,90.01169239697559,0.02,0.01,9.8,0.001,0.001,0.002,0.9937602756874735,0.36294695872466876,90.01169239697559
27,12.89999997875114,77.50027999999857,5.0,90.01259118246757,0.02,0.01,9.8,0.001,0.001,0.002,1.0282719833062262,0.3762210397657915,90.01259118246757
28,12.899999976390903,77.50028999999829,5.0,90.01352316132926,0.02,0.01,9.8,0.001,0.001,0.002,1.0623723958417668,0.3894183423086505,90.01352316132926
29,12.899999973862213,77.50029999999796,5.0,90.01448832320534,0.02,0.01,9.8,0.001,0.001,0.002,1.0960478735837471,0.4025361730720008,90.01448832320534
30,12.899999971159282,77.5003099999976,5.0,90.01548665737181,0.02,0.01,9.8,0.001,0.001,0.002,1.1292849467900707,0.415571854993052,90.01548665737181
31,12.89999996827632,77.50031999999719,5.0,90.01651815273607,0.02,0.01,9.8,0.001,0.001,0.002,1.1620703210746102,0.42852272777379863,90.01651815273607
32,12.899999965207543,77.50032999999672,5.0,90.01758279783708,0.02,0.01,9.8,0.001,0.001,0.002,1.1943908827247842,0.44138614842392854,90.01758279783708
33,12.899999961947167,77.50033999999619,5.0,90.01868058084546,0.02,0.01,9.8,0.001,0.001,0.002,1.2262337039468676,0.4541594918001997,90.01868058084546
34,12.89999995848941,77.50034999999559,5.0,90.01981148956361,0.02,0.01,9.8,0.001,0.001,0.002,1.2575860480369372,0.4668401511421746,90.01981148956361
35,12.899999954828493,77.50035999999493,5.0,90.02097551142592,0.02,0.01,9.8,0.001,0.001,0.002,1.288435374475382,0.479425538604203,90.02097551142592
36,12.89999995095864,77.50036999999418,5.0,90.02217263349881,0.02,0.01,9.8,0.001,0.001,0.002,1.3187693439429462,0.49191308578354476,90.02217263349881
37,12.899999946874074,77.50037999999334,5.0,90.02340284248093,0.02,0.01,9.8,0.001,0.001,0.002,1.34857582325629,0.5043002442445251,90.02340284248093
38,12.899999942569023,77.50038999999242,5.0,90.02466612470333,0.02,0.01,9.8,0.001,0.001,0.002,1.3778428902211026,0.5165844860386138,90.02466612470333
39,12.899999938037718,77.5003999999914,5.0,90.02596246612953,0.02,0.01,9.8,0.001,0.001,0.002,1.4065588384008205,0.5287633042203256,90.02596246612953
40,12.89999993327439,77.50040999999027,5.0,90.02729185235575,0.02,0.01,9.8,0.001,0.001,0.002,1.4347121817990456,0.5408342133588315,90.02729185235575
41,12.899999928273278,77.50041999998902,5.0,90.02865426861105,0.02,0.01,9.8,0.001,0.001,0.002,1.4622916594537916,0.5527947500451822,90.02865426861105
42,12.899999923028616,77.50042999998765,5.0,90.0300496997575,0.02,0.01,9.8,0.001,0.001,0.002,1.4892862399417186,0.5646424733950354,90.0300496997575
43,12.899999917534647,77.50043999998614,5.0,90.0314781302903,0.02,0.01,9.8,0.001,0.001,0.002,1.515685125790554,0.576374965546787,90.0314781302903
44,12.899999911785612,77.50044999998448,5.0,90.03293954433802,0.02,0.01,9.8,0.001,0.001,0.002,1.5414777577979386,0.5879898321550044,90.03293954433802
45,12.899999905775758,77.50045999998268,5.0,90.03443392566275,0.02,0.01,9.8,0.001,0.001,0.002,1.5666538192549668,0.5994847028790594,90.03443392566275
46,12.899999899499335,77.50046999998071,5.0,90.03596125766028,0.02,0.01,9.8,0.001,0.001,0.002,1.591203240072732,0.6108572318668631,90.03596125766028
47,12.899999892950595,77.50047999997857,5.0,90.03752152336024,0.02,0.01,9.8,0.001,0.001,0.002,1.6151162008102284,0.6221050982336039,90.03752152336024
48,12.89999988612379,77.50048999997624,5.0,90.03911470542639,0.02,0.01,9.8,0.001,0.001,0.002,1.6383831366019965,0.6332260065353882,90.03911470542639
49,12.899999879013183,77.50049999997371,5.0,90.0407407861567,0.02,0.01,9.8,0.001,0.001,0.002,1.660994740983941,0.644217687237691,90.0407407861567
50,12.899999871613032,77.50050999997097,5.0,90.04239974748364,0.02,0.01,9.8,0.001,0.001,0.002,1.682941969615793,0.6550778971785186,90.04239974748364
51,12.899999863917602,77.500519999968,5.0,90.04409157097432,0.02,0.01,9.8,0.001,0.001,0.002,1.704216043898726,0.6658044200261881,90.04409157097432
52,12.89999985592116,77.50052999996481,5.0,90.0458162378307,0.02,0.01,9.8,0.001,0.001,0.002,1.7248084544866769,0.6763950667316335,90.0458162378307
53,12.89999984761798,77.50053999996136,5.0,90.04757372888986,0.02,0.01,9.8,0.001,0.001,0.002,1.7447109646899726,0.6868476759751416,90.04757372888986
54,12.899999839002334,77.50054999995766,5.0,90.04936402462411,0.02,0.01,9.8,0.001,0.001,0.002,1.763915613769895,0.6971601146074311,90.04936402462411
55,12.8999998300685,77.50055999995367,5.0,90.05118710514132,0.02,0.01,9.8,0.001,0.001,0.002,1.7824147201228708,0.7073302780849811,90.05118710514132
56,12.899999820810761,77.50056999994938,5.0,90.05304295018504,0.02,0.01,9.8,0.001,0.001,0.002,1.8002008843530102,0.7173560908995228,90.05304295018504
57,12.8999998112234,77.50057999994478,5.0,90.05493153913481,0.02,0.01,9.8,0.001,0.001,0.002,1.8172669922317664,0.7272355070016054,90.05493153913481
58,12.899999801300709,77.50058999993985,5.0,90.05685285100631,0.02,0.01,9.8,0.001,0.001,0.002,1.8336062175435337,0.7369665102181505,90.05685285100631
59,12.899999791036976,77.50059999993458,5.0,90.05880686445165,0.02,0.01,9.8,0.001,0.001,0.002,1.8492120248160406,0.7465471146639079,90.05880686445165
60,12.8999997804265,77.50060999992895,5.0,90.06079355775961,0.02,0.01,9.8,0.001,0.001,0.002,1.8640781719344526,0.7559753651467324,90.06079355775961
61,12.899999769463582,77.50061999992295,5.0,90.06281290885582,0.02,0.01,9.8,0.001,0.001,0.002,1.8781987126381352,0.7652493375665956,90.06281290885582
62,12.899999758142524,77.50062999991654,5.0,90.06486489530306,0.02,0.01,9.8,0.001,0.001,0.002,1.891567998899078,0.7743671393082526,90.06486489530306
63,12.899999746457636,77.50063999990971,5.0,90.06694949430153,0.02,0.01,9.8,0.001,0.001,0.002,1.9041806831810315,0.7833269096274834,90.06694949430153
64,12.89999973440323,77.50064999990245,5.0,90.06906668268901,0.02,0.01,9.8,0.001,0.001,0.002,1.9160317205784498,0.79212682003083,90.06906668268901
65,12.89999972197362,77.50065999989472,5.0,90.07121643694123,0.02,0.01,9.8,0.001,0.001,0.002,1.927116370834386,0.8007650746487527,90.07121643694123
66,12.899999709163128,77.50066999988651,5.0,90.07339873317204,0.02,0.01,9.8,0.001,0.001,0.002,1.9374302002365305,0.8092399106021269,90.07339873317204
67,12.899999695966077,77.5006799998778,5.0,90.07561354713373,0.02,0.01,9.8,0.001,0.001,0.002,1.9469690833906388,0.8175495983620087,90.07561354713373
68,12.899999682376798,77.50068999986857,5.0,90.07786085421728,0.02,0.01,9.8,0.001,0.001,0.002,1.9557292048706325,0.8256924421025942,90.07786085421728
69,12.899999668389624,77.50069999985878,5.0,90.08014062945263,0.02,0.01,9.8,0.001,0.001,0.002,1.9637070607447193,0.8336667800473002,90.08014062945263
70,12.899999653998892,77.50070999984843,5.0,90.08245284750897,0.02,0.01,9.8,0.001,0.001,0.002,1.9708994599769203,0.8414709848078965,90.08245284750897
71,12.899999639198944,77.50071999983747,5.0,90.08479748269502,0.02,0.01,9.8,0.001,0.001,0.002,1.9773035257034395,0.8491034637166206,90.08479748269502
72,12.899999623984128,77.5007299998259,5.0,90.0871745089593,0.02,0.01,9.8,0.001,0.001,0.002,1.9829166963833729,0.8565626591512059,90.0871745089593
73,12.899999608348795,77.50073999981367,5.0,90.08958389989041,0.02,0.01,9.8,0.001,0.001,0.002,1.9877367268232897,0.863847048852759,90.08958389989041
74,12.8999995922873,77.50074999980077,5.0,90.0920256287174,0.02,0.01,9.8,0.001,0.001,0.002,1.99176168907528,0.8709551462364189,90.0920256287174
75,12.899999575794004,77.50075999978718,5.0,90.09449966830994,0.02,0.01,9.8,0.001,0.001,0.002,1.994989973208109,0.877885500694737,90.09449966830994
76,12.899999558863273,77.50076999977284,5.0,90.09700599117875,0.02,0.01,9.8,0.001,0.001,0.002,1.997420287951166,0.8846366978937141,90.09700599117875
77,12.899999541489477,77.50077999975775,5.0,90.09954456947581,0.02,0.01,9.8,0.001,0.001,0.002,1.9990516612109581,0.8912073600614354,90.09954456947581
78,12.899999523666992,77.50078999974187,5.0,90.10211537499474,0.02,0.01,9.8,0.001,0.001,0.002,1.9998834404599326,0.8975961462692429,90.10211537499474
79,12.899999505390197,77.50079999972516,5.0,90.10471837917103,0.02,0.01,9.8,0.001,0.001,0.002,1.9999152929974802,0.9038017527053908,90.10471837917103
80,12.899999486653478,77.50080999970761,5.0,90.10735355308246,0.02,0.01,9.8,0.001,0.001,0.002,1.9991472060830102,0.9098229129411239,90.10735355308246
81,12.899999467451225,77.50081999968917,5.0,90.11002086744935,0.02,0.01,9.8,0.001,0.001,0.002,1.997579486941048,0.9156583981891291,90.11002086744935
82,12.899999447777835,77.50082999966982,5.0,90.11272029263489,0.02,0.01,9.8,0.001,0.001,0.002,1.9952127626383473,0.9213070175543029,90.11272029263489
83,12.899999427627709,77.50083999964951,5.0,90.1154517986455,0.02,0.01,9.8,0.001,0.001,0.002,1.9920479798330735,0.9267676182767881,90.1154517986455
84,12.899999406995251,77.50084999962823,5.0,90.11821535513114,0.02,0.01,9.8,0.001,0.001,0.002,1.988086404396152,0.9320390859672263,90.11821535513114
85,12.899999385874874,77.50085999960592,5.0,90.12101093138565,0.02,0.01,9.8,0.001,0.001,0.002,1.9833296209049371,0.9371203448341808,90.12101093138565
86,12.899999364260996,77.50086999958256,5.0,90.12383849634712,0.02,0.01,9.8,0.001,0.001,0.002,1.977779532009403,0.942010357903682,90.12383849634712
87,12.899999342148037,77.50087999955811,5.0,90.12669801859816,0.02,0.01,9.8,0.001,0.001,0.002,1.971438357671107,0.9467081272308508,90.12669801859816
88,12.899999319530428,77.50088999953253,5.0,90.12958946636635,0.02,0.01,9.8,0.001,0.001,0.002,1.964308634275237,0.951212694103558,90.12958946636635
89,12.899999296402601,77.50089999950579,5.0,90.13251280752453,0.02,0.01,9.8,0.001,0.001,0.002,1.9563932136160893,0.9555231392380761,90.13251280752453
90,12.899999272758995,77.50090999947784,5.0,90.13546800959115,0.02,0.01,9.8,0.001,0.001,0.002,1.9476952617563903,0.9596385829666849,90.13546800959115
91,12.899999248594055,77.50091999944864,5.0,90.13845503973066,0.02,0.01,9.8,0.001,0.001,0.002,1.9382182577609126,0.963558185417193,90.13845503973066
92,12.899999223902233,77.50092999941816,5.0,90.14147386475386,0.02,0.01,9.8,0.001,0.001,0.002,1.9279659923048962,0.9672811466843368,90.14147386475386
93,12.899999198677985,77.50093999938635,5.0,90.1445244511183,0.02,0.01,9.8,0.001,0.001,0.002,1.9169425661578283,0.9708067069930242,90.1445244511183
94,12.899999172915773,77.50094999935317,5.0,90.1476067649286,0.02,0.01,9.8,0.001,0.001,0.002,1.9051523885431907,0.9741341468533876,90.1476067649286
95,12.899999146610067,77.50095999931857,5.0,90.15072077193685,0.02,0.01,9.8,0.001,0.001,0.002,1.892600175374829,0.9772627872076167,90.15072077193685
96,12.899999119755341,77.5009699992825,5.0,90.153866437543,0.02,0.01,9.8,0.001,0.001,0.002,1.8792909473706498,0.9801919895685385,90.153866437543
97,12.899999092346075,77.50097999924493,5.0,90.15704372679527,0.02,0.01,9.8,0.001,0.001,0.002,1.865230028044401,0.9829211561499195,90.15704372679527
98,12.899999064376756,77.50098999920581,5.0,90.16025260439045,0.02,0.01,9.8,0.001,0.001,0.002,1.8504230415763365,0.9854497299884601,90.16025260439045
99,12.899999035841876,77.5009999991651,5.0,90.1634930346744,0.02,0.01,9.8,0.001,0.001,0.002,1.8348759105636196,0.9877771950574594,90.1634930346744
100,12.899999006735937,77.50100999912274,5.0,90.16676498164236,0.02,0.01,9.8,0.001,0.001,0.002,1.8185948536513634,0.9899030763721239,90.16676498164236
101,12.899998977053444,77.5010199990787,5.0,90.1700684089394,0.02,0.01,9.8,0.001,0.001,0.002,1.8015863830452545,0.9918269400865026,90.1700684089394
102,12.899998946788909,77.5010299990329,5.0,90.1734032798608,0.02,0.01,9.8,0.001,0.001,0.002,1.7838573019067592,0.9935483935820251,90.1734032798608
103,12.89999891593685,77.5010399989853,5.0,90.1767695573525,0.02,0.01,9.8,0.001,0.001,0.002,1.7654147016319481,0.9950670855476259,90.1767695573525
104,12.899998884491792,77.50104999893587,5.0,90.18016720401143,0.02,0.01,9.8,0.001,0.001,0.002,1.746265959015033,0.9963827060514404,90.18016720401143
105,12.899998852448268,77.50105999888453,5.0,90.18359618208598,0.02,0.01,9.8,0.001,0.001,0.002,1.7264187332977474,0.9974949866040544,90.18359618208598
106,12.899998819800816,77.50106999883124,5.0,90.18705645347644,0.02,0.01,9.8,0.001,0.001,0.002,1.7058809631057523,0.9984037002132972,90.18705645347644
107,12.89999878654398,77.50107999877594,5.0,90.1905479797354,0.02,0.01,9.8,0.001,0.001,0.002,1.6846608632732913,0.9991086614305656,90.1905479797354
108,12.899998752672314,77.50108999871857,5.0,90.19407072206815,0.02,0.01,9.8,0.001,0.001,0.002,1.6627669215573662,0.9996097263886704,90.19407072206815
109,12.899998718180376,77.50109999865909,5.0,90.19762464133315,0.02,0.01,9.8,0.001,0.001,0.002,1.6402078952427481,0.9999067928311958,90.19762464133315
110,12.89999868306273,77.50110999859743,5.0,90.20120969804243,0.02,0.01,9.8,0.001,0.001,0.002,1.6169928076391802,0.9999998001333682,90.20120969804243
111,12.899998647313952,77.50111999853353,5.0,90.20482585236208,0.02,0.01,9.8,0.001,0.001,0.002,1.593130944472173,0.9998887293144285,90.20482585236208
112,12.899998610928618,77.50112999846733,5.0,90.20847306411264,0.02,0.01,9.8,0.001,0.001,0.002,1.5686318501688397,0.9995736030415051,90.20847306411264
113,12.899998573901318,77.50113999839878,5.0,90.21215129276956,0.02,0.01,9.8,0.001,0.001,0.002,1.5435053240402519,0.9990544856249888,90.21215129276956
114,12.899998536226644,77.50114999832782,5.0,90.2158604974637,0.02,0.01,9.8,0.001,0.001,0.002,1.517761416361844,0.9983314830054074,90.2158604974637
115,12.899998497899196,77.50115999825437,5.0,90.21960063698168,0.02,0.01,9.8,0.001,0.001,0.002,1.4914104243534405,0.9974047427318068,90.21960063698168
116,12.899998458913583,77.50116999817837,5.0,90.22337166976645,0.02,0.01,9.8,0.001,0.001,0.002,1.4644628880605028,0.9962744539316386,90.22337166976645
117,12.899998419264422,77.50117999809977,5.0,90.22717355391768,0.02,0.01,9.8,0.001,0.001,0.002,1.4369295861382525,0.9949408472721635,90.22717355391768
118,12.899998378946336,77.50118999801849,5.0,90.23100624719225,0.02,0.01,9.8,0.001,0.001,0.002,1.4088215315403523,0.9934041949133772,90.23100624719225
119,12.899998337953953,77.50119999793446,5.0,90.23486970700473,0.02,0.01,9.8,0.001,0.001,0.002,1.3801499671138728,0.9916648104524686,90.23486970700473
120,12.899998296281913,77.50120999784764,5.0,90.23876389042782,0.02,0.01,9.8,0.001,0.001,0.002,1.350926361102302,0.9897230488598214,90.23876389042782
121,12.899998253924862,77.50121999775793,5.0,90.24268875419286,0.02,0.01,9.8,0.001,0.001,0.002,1.3211624025584014,0.9875793064065722,90.24268875419286
122,12.89999821087745,77.50122999766528,5.0,90.24664425469028,0.02,0.01,9.8,0.001,0.001,0.002,1.2908699966687416,0.9852340205837405,90.24664425469028
123,12.899998167134342,77.5012399975696,5.0,90.25063034797013,0.02,0.01,9.8,0.001,0.001,0.002,1.2600612599917844,0.9826876700129462,90.25063034797013
124,12.899998122690205,77.50124999747084,5.0,90.25464698974251,0.02,0.01,9.8,0.001,0.001,0.002,1.2287485156114235,0.9799407743487332,90.25464698974251
125,12.899998077539713,77.5012599973689,5.0,90.25869413537812,0.02,0.01,9.8,0.001,0.001,0.002,1.1969442882079129,0.9769938941725196,90.25869413537812
126,12.899998031677553,77.50126999726373,5.0,90.26277173990871,0.02,0.01,9.8,0.001,0.001,0.002,1.1646612990481637,0.9738476308781951,90.26277173990871
127,12.899997985098416,77.50127999715525,5.0,90.26687975802761,0.02,0.01,9.8,0.001,0.001,0.002,1.1319124608974056,0.9705026265493899,90.26687975802761
128,12.899997937797004,77.50128999704337,5.0,90.27101814409022,0.02,0.01,9.8,0.001,0.001,0.002,1.0987108728542532,0.9669595638284387,90.27101814409022
129,12.899997889768022,77.50129999692803,5.0,90.27518685211452,0.02,0.01,9.8,0.001,0.001,0.002,1.0650698151112423,0.9632191657770692,90.27518685211452
130,12.899997841006188,77.50130999680914,5.0,90.27938583578155,0.02,0.01,9.8,0.001,0.001,0.002,1.0310027436429283,0.9592821957288404,90.27938583578155
131,12.899997791506227,77.50131999668663,5.0,90.283615048436,0.02,0.01,9.8,0.001,0.001,0.002,0.9965232848236771,0.9551494571333634,90.283615048436
132,12.899997741262869,77.50132999656041,5.0,90.28787444308666,0.02,0.01,9.8,0.001,0.001,0.002,0.9616452299772965,0.9508217933923342,90.28787444308666
133,12.899997690270856,77.5013399964304,5.0,90.29216397240697,0.02,0.01,9.8,0.001,0.001,0.002,0.9263825298606904,0.9463000876874145,90.29216397240697
134,12.899997638524939,77.50134999629653,5.0,90.29648358873553,0.02,0.01,9.8,0.001,0.001,0.002,0.8907492890837423,0.9415852627999931,90.29648358873553
135,12.899997586019873,77.50135999615868,5.0,90.30083324407664,0.02,0.01,9.8,0.001,0.001,0.002,0.8547597604676596,0.9366782809228669,90.30083324407664
136,12.899997532750428,77.5013699960168,5.0,90.30521289010085,0.02,0.01,9.8,0.001,0.001,0.002,0.8184283393440346,0.9315801434638776,90.30521289010085
137,12.899997478711374,77.50137999587079,5.0,90.30962247814547,0.02,0.01,9.8,0.001,0.001,0.002,0.7817695577969044,0.9262918908415472,90.30962247814547
138,12.899997423897496,77.50138999572056,5.0,90.31406195921512,0.02,0.01,9.8,0.001,0.001,0.002,0.7447980788501114,0.9208146022727502,90.31406195921512
139,12.899997368303586,77.50139999556602,5.0,90.3185312839823,0.02,0.01,9.8,0.001,0.001,0.002,0.7075286906022862,0.9151493955524703,90.3185312839823
140,12.899997311924443,77.50140999540709,5.0,90.32303040278785,0.02,0.01,9.8,0.001,0.001,0.002,0.6699763003118102,0.9092974268256817,90.32303040278785
141,12.899997254754878,77.50141999524367,5.0,90.32755926564164,0.02,0.01,9.8,0.001,0.001,0.002,0.6321559284341076,0.9032598903514055,90.32755926564164
142,12.899997196789707,77.50142999507567,5.0,90.33211782222301,0.02,0.01,9.8,0.001,0.001,0.002,0.5940827026136648,0.8970380182589878,90.33211782222301
143,12.899997138023759,77.501439994903,5.0,90.33670602188138,0.02,0.01,9.8,0.001,0.001,0.002,0.5557718516331736,0.8906330802966489,90.33670602188138
144,12.899997078451868,77.50144999472555,5.0,90.3413238136368,0.02,0.01,9.8,0.001,0.001,0.002,0.5172386993222217,0.8840463835723552,90.3413238136368
145,12.899997018068879,77.50145999454324,5.0,90.34597114618052,0.02,0.01,9.8,0.001,0.001,0.002,0.47849865842796485,0.8772792722870669,90.34597114618052
146,12.899996956869645,77.50146999435597,5.0,90.35064796787555,0.02,0.01,9.8,0.001,0.001,0.002,0.4395672244502339,0.870333127460417,90.35064796787555
147,12.89999689484903,77.50147999416365,5.0,90.35535422675726,0.02,0.01,9.8,0.001,0.001,0.002,0.40045996944354106,0.8632093666488737,90.35535422675726
148,12.899996832001905,77.50148999396616,5.0,90.36008987053393,0.02,0.01,9.8,0.001,0.001,0.002,0.36119253578846583,0.8559094436564494,90.36008987053393
149,12.899996768323152,77.5014999937634,5.0,90.36485484658735,0.02,0.01,9.8,0.001,0.001,0.002,0.3217806299349115,0.8484348482380103,90.36485484658735
150,12.89999670380766,77.50150999355529,5.0,90.3696491019734,0.02,0.01,9.8,0.001,0.001,0.002,0.2822400161197344,0.8407871057952504,90.3696491019734
151,12.89999663845033,77.5015199933417,5.0,90.3744725834226,0.02,0.01,9.8,0.001,0.001,0.002,0.2425865100612595,0.83296777706539,90.3744725834226
152,12.89999657224607,77.50152999312255,5.0,90.37932523734078,0.02,0.01,9.8,0.001,0.001,0.002,0.20283597263320371,0.8249784578026637,90.37932523734078
153,12.899996505189801,77.50153999289772,5.0,90.38420700980961,0.02,0.01,9.8,0.001,0.001,0.002,0.16300430352053824,0.8168207784526614,90.38420700980961
154,12.899996437276448,77.50154999266711,5.0,90.38911784658723,0.02,0.01,9.8,0.001,0.001,0.002,0.1231074348598263,0.8084964038195901,90.38911784658723
155,12.899996368500949,77.5015599924306,5.0,90.39405769310882,0.02,0.01,9.8,0.001,0.001,0.002,0.08316132486658098,0.8000070327265242,90.39405769310882
156,12.89999629885825,77.5015699921881,5.0,90.39902649448726,0.02,0.01,9.8,0.001,0.001,0.002,0.04318195145219192,0.791354397668712,90.39902649448726
157,12.89999622834331,77.50157999193948,5.0,90.40402419551368,0.02,0.01,9.8,0.001,0.001,0.002,0.0031853058329736565,0.7825402644600116,90.40402419551368
158,12.899996156951094,77.50158999168464,5.0,90.40905074065815,0.02,0.01,9.8,0.001,0.001,0.002,-0.03681261386610762,0.7735664318725268,90.40905074065815
159,12.899996084676578,77.50159999142346,5.0,90.41410607407019,0.02,0.01,9.8,0.001,0.001,0.002,-0.07679580901047076,0.7644347312695177,90.41410607407019
160,12.89999601151475,77.50160999115583,5.0,90.4191901395795,0.02,0.01,9.8,0.001,0.001,0.002,-0.11674828685516017,0.7551470262316581,90.4191901395795
161,12.899995937460604,77.50161999088162,5.0,90.42430288069652,0.02,0.01,9.8,0.001,0.001,0.002,-0.1566540669417306,0.7457052121767203,90.42430288069652
162,12.899995862509146,77.50162999060073,5.0,90.42944424061305,0.02,0.01,9.8,0.001,0.001,0.002,-0.19649718749021736,0.7361112159727615,90.42944424061305
163,12.899995786655392,77.50163999031304,5.0,90.43461416220293,0.02,0.01,9.8,0.001,0.001,0.002,-0.23626171178363475,0.7263669955448929,90.43461416220293
164,12.899995709894368,77.50164999001842,5.0,90.43981258802265,0.02,0.01,9.8,0.001,0.001,0.002,-0.2759317345424537,0.7164745394757083,90.43981258802265
165,12.89999563222111,77.50165998971676,5.0,90.44503946031196,0.02,0.01,9.8,0.001,0.001,0.002,-0.3154913882864964,0.7064358665994588,90.44503946031196
166,12.899995553630664,77.50166998940793,5.0,90.45029472099456,0.02,0.01,9.8,0.001,0.001,0.002,-0.3549248496817203,0.6962530255900531,90.45029472099456
167,12.899995474118086,77.50167998909181,5.0,90.45557831167872,0.02,0.01,9.8,0.001,0.001,0.002,-0.3942163458693397,0.6859280945429672,90.45557831167872
168,12.899995393678443,77.50168998876828,5.0,90.46089017365793,0.02,0.01,9.8,0.001,0.001,0.002,-0.43335016077475924,0.675463180551151,90.46089017365793
169,12.899995312306812,77.50169998843721,5.0,90.46623024791155,0.02,0.01,9.8,0.001,0.001,0.002,-0.472310641393794,0.6648604192750164,90.46623024791155
170,12.89999522999828,77.50170998809847,5.0,90.4715984751055,0.02,0.01,9.8,0.001,0.001,0.002,-0.5110822040536624,0.6541219745065956,90.4715984751055
171,12.899995146747946,77.50171998775193,5.0,90.47699479559283,0.02,0.01,9.8,0.001,0.001,0.002,-0.549649340646248,0.6432500377279585,90.47699479559283
172,12.899995062550916,77.50172998739747,5.0,90.48241914941451,0.02,0.01,9.8,0.001,0.001,0.002,-0.5879966248311352,0.6322468276639797,90.48241914941451
173,12.89999497740231,77.50173998703495,5.0,90.48787147629999,0.02,0.01,9.8,0.001,0.001,0.002,-0.6261087182059404,0.6211145898295436,90.48787147629999
174,12.899994891297256,77.50174998666424,5.0,90.4933517156679,0.02,0.01,9.8,0.001,0.001,0.002,-0.6639703764414682,0.6098555960712856,90.4933517156679
175,12.899994804230895,77.50175998628521,5.0,90.49885980662677,0.02,0.01,9.8,0.001,0.001,0.002,-0.7015664553792397,0.5984721441039564,90.49885980662677
176,12.899994716198377,77.50176998589771,5.0,90.50439568797563,0.02,0.01,9.8,0.001,0.001,0.002,-0.7388819170889542,0.5869665570415099,90.50439568797563
177,12.899994627194864,77.50177998550161,5.0,90.50995929820476,0.02,0.01,9.8,0.001,0.001,0.002,-0.7759018358834606,0.5753411829230053,90.50995929820476
178,12.899994537215528,77.50178998509679,5.0,90.51555057549632,0.02,0.01,9.8,0.001,0.001,0.002,-0.8126114042888336,0.563598394233424,90.51555057549632
179,12.899994446255553,77.5017999846831,5.0,90.52116945772505,0.02,0.01,9.8,0.001,0.001,0.002,-0.8489959389671652,0.5517405874194973,90.52116945772505
180,12.899994354310131,77.50180998426039,5.0,90.526815882459,0.02,0.01,9.8,0.001,0.001,0.002,-0.8850408865897049,0.5397701824006438,90.526815882459
181,12.899994261374468,77.50181998382853,5.0,90.53248978696017,0.02,0.01,9.8,0.001,0.001,0.002,-0.9207318296579966,0.5276896220751175,90.53248978696017
182,12.899994167443781,77.50182998338737,5.0,90.53819110818523,0.02,0.01,9.8,0.001,0.001,0.002,-0.9560544922706857,0.5155013718214642,90.53819110818523
183,12.899994072513296,77.50183998293677,5.0,90.54391978278623,0.02,0.01,9.8,0.001,0.001,0.002,-0.9909947458336898,0.5032079189953922,90.54391978278623
184,12.899993976578251,77.50184998247659,5.0,90.5496757471113,0.02,0.01,9.8,0.001,0.001,0.002,-1.0255386147114476,0.4908117724221579,90.5496757471113
185,12.899993879633897,77.50185998200666,5.0,90.55545893720532,0.02,0.01,9.8,0.001,0.001,0.002,-1.0596722818169868,0.47831546188456847,90.55545893720532
186,12.899993781675493,77.50186998152687,5.0,90.56126928881069,0.02,0.01,9.8,0.001,0.001,0.002,-1.0933820941385743,0.46572153760670904,90.56126928881069
187,12.89999368269831,77.50187998103704,5.0,90.56710673736801,0.02,0.01,9.8,0.001,0.001,0.002,-1.12665456820074,0.45303256973349726,90.56710673736801
188,12.899993582697634,77.50188998053702,5.0,90.5729712180168,0.02,0.01,9.8,0.001,0.001,0.002,-1.1594763954574856,0.4402511478061732,90.5729712180168
189,12.899993481668758,77.50189998002666,5.0,90.57886266559623,0.02,0.01,9.8,0.001,0.001,0.002,-1.1918344476155278,0.4273798802338298,90.57886266559623
190,12.89999337960699,77.50190997950583,5.0,90.58478101464583,0.02,0.01,9.8,0.001,0.001,0.002,-1.2237157818854378,0.4144213937610953,90.58478101464583
191,12.899993276507645,77.50191997897434,5.0,90.5907261994062,0.02,0.01,9.8,0.001,0.001,0.002,-1.2551076461585866,0.40137833293206987,90.5907261994062
192,12.899993172366054,77.50192997843206,5.0,90.59669815381983,0.02,0.01,9.8,0.001,0.001,0.002,-1.2859974841078177,0.3882533595506329,90.59669815381983
193,12.899993067177556,77.50193997787882,5.0,90.60269681153171,0.02,0.01,9.8,0.001,0.001,0.002,-1.3163729402098099,0.3750491521372271,90.60269681153171
194,12.899992960937505,77.50194997731445,5.0,90.60872210589017,0.02,0.01,9.8,0.001,0.001,0.002,-1.3462218646871233,0.36176840538223076,90.60872210589017
195,12.899992853641264,77.50195997673882,5.0,90.61477396994752,0.02,0.01,9.8,0.001,0.001,0.002,-1.3755323183679475,0.3484138295960303,90.61477396994752
196,12.89999274528421,77.50196997615174,5.0,90.62085233646093,0.02,0.01,9.8,0.001,0.001,0.002,-1.4042925774616108,0.3349881501559051,90.62085233646093
197,12.89999263586173,77.50197997555306,5.0,90.62695713789303,0.02,0.01,9.8,0.001,0.001,0.002,-1.432491138247941,0.3214941069498372,90.62695713789303
198,12.899992525369225,77.5019899749426,5.0,90.63308830641276,0.02,0.01,9.8,0.001,0.001,0.002,-1.460116721678599,0.3079344538173615,90.63308830641276
199,12.899992413802105,77.50199997432023,5.0,90.63924577389609,0.02,0.01,9.8,0.001,0.001,0.002,-1.4871582778885493,0.29431195798756493,90.63924577389609
200,12.899992301155793,77.50200997368574,5.0,90.64542947192679,0.02,0.01,9.8,0.001,0.001,0.002,-1.5136049906158564,0.28062939951435684,90.64542947192679
201,12.899992187425726,77.502019973039,5.0,90.65163933179716,0.02,0.01,9.8,0.001,0.001,0.002,-1.5394462815280476,0.2668895707091206,90.65163933179716
202,12.89999207260735,77.50202997237982,5.0,90.6578752845088,0.02,0.01,9.8,0.001,0.001,0.002,-1.5646718144533056,0.25309527557086364,90.6578752845088
203,12.899991956696127,77.50203997170803,5.0,90.66413726077344,0.02,0.01,9.8,0.001,0.001,0.002,-1.5892714995147936,0.23924932921398243,90.66413726077344
204,12.899991839687527,77.50204997102345,5.0,90.67042519101363,0.02,0.01,9.8,0.001,0.001,0.002,-1.613235497166481,0.22535455729375925,90.67042519101363
205,12.899991721577035,77.50205997032593,5.0,90.67673900536353,0.02,0.01,9.8,0.001,0.001,0.002,-1.6365542221288205,0.21141379542970767,90.67673900536353
206,12.899991602360148,77.50206996961528,5.0,90.68307863366971,0.02,0.01,9.8,0.001,0.001,0.002,-1.6592183472227418,0.1974298886268839,90.68307863366971
207,12.899991482032373,77.50207996889131,5.0,90.68944400549192,0.02,0.01,9.8,0.001,0.001,0.002,-1.681218807100389,0.18340569069528537,90.68944400549192
208,12.899991360589231,77.50208996815385,5.0,90.6958350501039,0.02,0.01,9.8,0.001,0.001,0.002,-1.702546801871149,0.16934406366744764,90.6958350501039
209,12.899991238026256,77.50209996740274,5.0,90.70225169649407,0.02,0.01,9.8,0.001,0.001,0.002,-1.723193800621481,0.15524787721436786,90.70225169649407
210,12.899991114338995,77.50210996663779,5.0,90.70869387336646,0.02,0.01,9.8,0.001,0.001,0.002,-1.7431515448271764,0.1411200080598672,90.70869387336646
211,12.899990989523006,77.50211996585881,5.0,90.71516150914135,0.02,0.01,9.8,0.001,0.001,0.002,-1.7624120516566506,0.1269633393935143,90.71516150914135
212,12.89999086357386,77.50212996506562,5.0,90.72165453195623,0.02,0.01,9.8,0.001,0.001,0.002,-1.780967617163977,0.11278076028222922,90.72165453195623
213,12.89999073648714,77.50213996425803,5.0,90.72817286966645,0.02,0.01,9.8,0.001,0.001,0.002,-1.7988108193703554,0.09857516508068798,90.72817286966645
214,12.899990608258443,77.50214996343587,5.0,90.7347164498461,0.02,0.01,9.8,0.001,0.001,0.002,-1.8159345212328108,0.08434945284064801,90.7347164498461
215,12.899990478883378,77.50215996259894,5.0,90.7412851997888,0.02,0.01,9.8,0.001,0.001,0.002,-1.8323318734989098,0.07010652671931457,90.7412851997888
216,12.899990348357568,77.50216996174706,5.0,90.74787904650852,0.02,0.01,9.8,0.001,0.001,0.002,-1.8479963174463758,0.055849293386871446,90.74787904650852
217,12.899990216676645,77.50217996088003,5.0,90.75449791674035,0.02,0.01,9.8,0.001,0.001,0.002,-1.862921587506485,0.04158066243329049,90.75449791674035
218,12.89999008383626,77.50218995999766,5.0,90.76114173694135,0.02,0.01,9.8,0.001,0.001,0.002,-1.8771017137702157,0.027303545774549538,90.76114173694135
219,12.899989949832069,77.50219995909977,5.0,90.76781043329139,0.02,0.01,9.8,0.001,0.001,0.002,-1.8905310243761266,0.013020857058373546,90.76781043329139
220,12.89998981465975,77.50220995818616,5.0,90.77450393169389,0.02,0.01,9.8,0.001,0.001,0.002,-1.9032041477790322,-0.00126448893037729,90.77450393169389
221,12.899989678314986,77.50221995725661,5.0,90.78122215777672,0.02,0.01,9.8,0.001,0.001,0.002,-1.9151160148985422,-0.015549576864551471,90.78122215777672
222,12.899989540793479,77.50222995631096,5.0,90.78796503689301,0.02,0.01,9.8,0.001,0.001,0.002,-1.9262618611466333,-0.0298314914696608,90.78796503689301
223,12.89998940209094,77.50223995534898,5.0,90.79473249412193,0.02,0.01,9.8,0.001,0.001,0.002,-1.9366372283334143,-0.04410731811882425,90.79473249412193
224,12.899989262203094,77.5022499543705,5.0,90.80152445426958,0.02,0.01,9.8,0.001,0.001,0.002,-1.9462379664503477,-0.058374143427580086,90.80152445426958
225,12.899989121125683,77.5022599533753,5.0,90.80834084186982,0.02,0.01,9.8,0.001,0.001,0.002,-1.955060235330194,-0.07262905584844226,90.80834084186982
226,12.899988978854457,77.50226995236319,5.0,90.81518158118507,0.02,0.01,9.8,0.001,0.001,0.002,-1.9631005061830307,-0.0868691462650863,90.81518158118507
227,12.899988835385182,77.50227995133397,5.0,90.82204659620719,0.02,0.01,9.8,0.001,0.001,0.002,-1.970355563007719,-0.10109150858603469,90.82204659620719
228,12.899988690713638,77.50228995028743,5.0,90.8289358106583,0.02,0.01,9.8,0.001,0.001,0.002,-1.976822503878261,-0.11529324033772709,90.8289358106583
229,12.899988544835615,77.50229994922336,5.0,90.83584914799164,0.02,0.01,9.8,0.001,0.001,0.002,-1.982498742104534,-0.12947144325685178,90.83584914799164
230,12.89998839774692,77.50230994814154,5.0,90.84278653139243,0.02,0.01,9.8,0.001,0.001,0.002,-1.9873820072669288,-0.14362322388181803,90.84278653139243
231,12.899988249443373,77.50231994704178,5.0,90.8497478837787,0.02,0.01,9.8,0.001,0.001,0.002,-1.9914703461244907,-0.1577456941432482,90.8497478837787
232,12.899988099920806,77.50232994592388,5.0,90.85673312780217,0.02,0.01,9.8,0.001,0.001,0.002,-1.9947621233961865,-0.17183597195337033,90.85673312780217
233,12.899987949175065,77.5023399447876,5.0,90.86374218584908,0.02,0.01,9.8,0.001,0.001,0.002,-1.9972560224149978,-0.1858911817941874,90.86374218584908
234,12.89998779720201,77.50234994363274,5.0,90.87077498004108,0.02,0.01,9.8,0.001,0.001,0.002,-1.998951045654568,-0.19990845530431037,90.87077498004108
235,12.899987643997516,77.5023599424591,5.0,90.87783143223609,0.02,0.01,9.8,0.001,0.001,0.002,-1.9998465151282017,-0.21388493186432642,90.87783143223609
236,12.89998748955747,77.50236994126644,5.0,90.88491146402916,0.02,0.01,9.8,0.001,0.001,0.002,-1.999942072660049,-0.22781775918058939,90.88491146402916
237,12.899987333877773,77.50237994005455,5.0,90.89201499675333,0.02,0.01,9.8,0.001,0.001,0.002,-1.9992376800283709,-0.24170409386731045,90.89201499675333
238,12.899987176954339,77.50238993882323,5.0,90.89914195148054,0.02,0.01,9.8,0.001,0.001,0.002,-1.9977336189808284,-0.2555411020268312,90.89914195148054
239,12.899987018783097,77.50239993757225,5.0,90.90629224902248,0.02,0.01,9.8,0.001,0.001,0.002,-1.9954304911217866,-0.2693259598279603,90.90629224902248
240,12.899986859359991,77.50240993630138,5.0,90.91346580993148,0.02,0.01,9.8,0.001,0.001,0.002,-1.9923292176716814,-0.2830558540822556,90.91346580993148
241,12.899986698680978,77.50241993501041,5.0,90.92066255450136,0.02,0.01,9.8,0.001,0.001,0.002,-1.9884310390985427,-0.296727982818135,90.92066255450136
242,12.899986536742027,77.5024299336991,5.0,90.92788240276839,0.02,0.01,9.8,0.001,0.001,0.002,-1.9837375146218252,-0.31033955585269596,90.92788240276839
243,12.899986373539123,77.50243993236725,5.0,90.93512527451209,0.02,0.01,9.8,0.001,0.001,0.002,-1.9782505215887396,-0.3238877953611335,90.93512527451209
244,12.899986209068265,77.50244993101462,5.0,90.94239108925619,0.02,0.01,9.8,0.001,0.001,0.002,-1.9719722547233407,-0.3373699364436316,90.94239108925619
245,12.899986043325466,77.50245992964099,5.0,90.94967976626948,0.02,0.01,9.8,0.001,0.001,0.002,-1.964905225248665,-0.35078322768961984,90.94967976626948
246,12.899985876306754,77.50246992824613,5.0,90.95699122456675,0.02,0.01,9.8,0.001,0.001,0.002,-1.957052259882277,-0.3641249317392756,90.95699122456675
247,12.89998570800817,77.5024799268298,5.0,90.96432538290964,0.02,0.01,9.8,0.001,0.001,0.002,-1.9484164997056181,-0.3773923258421598,90.96432538290964
248,12.89998553842577,77.5024899253918,5.0,90.97168215980757,0.02,0.01,9.8,0.001,0.001,0.002,-1.9390013989076176,-0.3905827024128708,90.97168215980757
249,12.899985367555624,77.50249992393186,5.0,90.97906147351867,0.02,0.01,9.8,0.001,0.001,0.002,-1.928810723403061,-0.4036933695836032,90.97906147351867
250,12.899985195393814,77.50250992244978,5.0,90.98646324205063,0.02,0.01,9.8,0.001,0.001,0.002,-1.917848549326277,-0.41672165175349984,90.98646324205063
251,12.899985021936441,77.50251992094529,5.0,90.99388738316166,0.02,0.01,9.8,0.001,0.001,0.002,-1.9061192614007354,-0.4296648901346821,90.99388738316166
252,12.899984847179617,77.50252991941818,5.0,91.00133381436137,0.02,0.01,9.8,0.001,0.001,0.002,-1.8936275511852179,-0.44252044329485246,91.00133381436137
253,12.899984671119471,77.5025399178682,5.0,91.00880245291172,0.02,0.01,9.8,0.001,0.001,0.002,-1.8803784151972573,-0.45528568769635175,91.00880245291172
254,12.899984493752145,77.50254991629512,5.0,91.01629321582791,0.02,0.01,9.8,0.001,0.001,0.002,-1.8663771529145952,-0.4679580182315663,91.01629321582791
255,12.899984315073795,77.5025599146987,5.0,91.02380601987932,0.02,0.01,9.8,0.001,0.001,0.002,-1.851629364655465,-0.48053484875457353,91.02380601987932
256,12.899984135080592,77.50256991307869,5.0,91.03134078159042,0.02,0.01,9.8,0.001,0.001,0.002,-1.836140949338534,-0.49301361260891774,91.03134078159042
257,12.899983953768722,77.50257991143485,5.0,91.03889741724171,0.02,0.01,9.8,0.001,0.001,0.002,-1.8199181021234212,-0.5053917631514087,91.03889741724171
258,12.899983771134385,77.50258990976694,5.0,91.04647584287066,0.02,0.01,9.8,0.001,0.001,0.002,-1.8029673119327096,-0.517666774271836,91.04647584287066
259,12.8999835871738,77.50259990807473,5.0,91.05407597427262,0.02,0.01,9.8,0.001,0.001,0.002,-1.7852953588564693,-0.5298361409084934,91.05407597427262
260,12.899983401883194,77.50260990635795,5.0,91.06169772700176,0.02,0.01,9.8,0.001,0.001,0.002,-1.7669093114403063,-0.5418973795594052,91.06169772700176
261,12.899983215258814,77.50261990461637,5.0,91.06934101637201,0.02,0.01,9.8,0.001,0.001,0.002,-1.7478165238580448,-0.5538480287891577,91.06934101637201
262,12.89998302729692,77.50262990284973,5.0,91.07700575745802,0.02,0.01,9.8,0.001,0.001,0.002,-1.7280246329701487,-0.5656856497312228,91.07700575745802
263,12.899982837993782,77.50263990105779,5.0,91.08469186509609,0.02,0.01,9.8,0.001,0.001,0.002,-1.7075415552690867,-0.5774078265856771,91.08469186509609
264,12.899982647345697,77.5026498992403,5.0,91.09239925388508,0.02,0.01,9.8,0.001,0.001,0.002,-1.6863754837128333,-0.5890121671122148,91.09239925388508
265,12.899982455348965,77.502659897397,5.0,91.10012783818742,0.02,0.01,9.8,0.001,0.001,0.002,-1.6645348844478025,-0.6004963031183511,91.10012783818742
266,12.899982261999908,77.50266989552763,5.0,91.10787753213005,0.02,0.01,9.8,0.001,0.001,0.002,-1.642028493422494,-0.6118578909427189,91.10787753213005
267,12.899982067294859,77.50267989363195,5.0,91.11564824960531,0.02,0.01,9.8,0.001,0.001,0.002,-1.6188653128932389,-0.6230946119333591,91.11564824960531
268,12.89998187123017,77.5026898917097,5.0,91.123439904272,0.02,0.01,9.8,0.001,0.001,0.002,-1.5950546078234087,-0.6342041729209055,91.123439904272
269,12.899981673802206,77.5026998897606,5.0,91.13125240955625,0.02,0.01,9.8,0.001,0.001,0.002,-1.5706059021775611,-0.6451843066865725,91.13125240955625
270,12.899981475007346,77.50270988778445,5.0,91.13908567865253,0.02,0.01,9.8,0.001,0.001,0.002,-1.5455289751119743,-0.6560327724248436,91.13908567865253
271,12.899981274841988,77.50271988578093,5.0,91.14693962452459,0.02,0.01,9.8,0.001,0.001,0.002,-1.519833857063122,-0.6667473562007719,91.14693962452459
272,12.899981073302541,77.50272988374982,5.0,91.15481415990645,0.02,0.01,9.8,0.001,0.001,0.002,-1.4935308257356246,-0.6773258714017945,91.15481415990645
273,12.899980870385432,77.50273988169084,5.0,91.16270919730336,0.02,0.01,9.8,0.001,0.001,0.002,-1.466630401991313,-0.6877661591839738,91.16270919730336
274,12.899980666087103,77.50274987960374,5.0,91.17062464899274,0.02,0.01,9.8,0.001,0.001,0.002,-1.439143345641015,-0.6980660889125693,91.17062464899274
275,12.89998046040401,77.50275987748824,5.0,91.17856042702523,0.02,0.01,9.8,0.001,0.001,0.002,-1.4110806511407838,-0.7082235585968545,91.17856042702523
276,12.899980253332625,77.50276987534409,5.0,91.1865164432256,0.02,0.01,9.8,0.001,0.001,0.002,-1.3824535431942542,-0.7182364953190867,91.1865164432256
277,12.899980044869437,77.50277987317101,5.0,91.19449260919374,0.02,0.01,9.8,0.001,0.001,0.002,-1.3532734722629136,-0.7281028556575441,91.19449260919374
278,12.89997983501095,77.50278987096874,5.0,91.20248883630568,0.02,0.01,9.8,0.001,0.001,0.002,-1.3235521099860752,-0.7378206261035443,91.20248883630568
279,12.899979623753682,77.50279986873701,5.0,91.21050503571452,0.02,0.01,9.8,0.001,0.001,0.002,-1.293301344512367,-0.7473878234723568,91.21050503571452
280,12.899979411094169,77.50280986647556,5.0,91.21854111835147,0.02,0.01,9.8,0.001,0.001,0.002,-1.2625332757446432,-0.7568024953079282,91.21854111835147
281,12.899979197028959,77.5028198641841,5.0,91.2265969949268,0.02,0.01,9.8,0.001,0.001,0.002,-1.2312602105001726,-0.7660627202813355,91.2265969949268
282,12.89997898155462,77.50282986186238,5.0,91.23467257593084,0.02,0.01,9.8,0.001,0.001,0.002,-1.1994946575880876,-0.7751666085828871,91.23467257593084
283,12.899978764667733,77.5028398595101,5.0,91.24276777163503,0.02,0.01,9.8,0.001,0.001,0.002,-1.1672493228060146,-0.7841123023077924,91.24276777163503
284,12.899978546364895,77.50284985712702,5.0,91.25088249209281,0.02,0.01,9.8,0.001,0.001,0.002,-1.1345371038579373,-0.7928979758353191,91.25088249209281
285,12.89997832664272,77.50285985471284,5.0,91.25901664714071,0.02,0.01,9.8,0.001,0.001,0.002,-1.1013710851952752,-0.8015218362013626,91.25901664714071
286,12.899978105497837,77.50286985226728,5.0,91.26717014639931,0.02,0.01,9.8,0.001,0.001,0.002,-1.0677645327832885,-0.809982123464351,91.26717014639931
287,12.89997788292689,77.50287984979008,5.0,91.27534289927425,0.02,0.01,9.8,0.001,0.001,0.002,-1.0337308887948575,-0.8182771110644103,91.27534289927425
288,12.899977658926542,77.50288984728095,5.0,91.28353481495726,0.02,0.01,9.8,0.001,0.001,0.002,-0.9992837662338049,-0.8264051061757183,91.28353481495726
289,12.899977433493467,77.50289984473963,5.0,91.29174580242714,0.02,0.01,9.8,0.001,0.001,0.002,-0.9644369434898631,-0.8343644500519732,91.29174580242714
290,12.899977206624358,77.50290984216582,5.0,91.29997577045077,0.02,0.01,9.8,0.001,0.001,0.002,-0.9292043588275147,-0.8421535183649058,91.29997577045077
291,12.899976978315927,77.50291983955924,5.0,91.30822462758415,0.02,0.01,9.8,0.001,0.001,0.002,-0.89360010481086,-0.8497707215357723,91.30822462758415
292,12.899976748564894,77.50292983691962,5.0,91.3164922821734,0.02,0.01,9.8,0.001,0.001,0.002,-0.8576384226667918,-0.8572145050597508,91.3164922821734
293,12.899976517368003,77.50293983424666,5.0,91.32477864235578,0.02,0.01,9.8,0.001,0.001,0.002,-0.8213336965886817,-0.8644833498231823,91.32477864235578
294,12.899976284722012,77.50294983154009,5.0,91.3330836160607,0.02,0.01,9.8,0.001,0.001,0.002,-0.7847004479829077,-0.8715757724135882,91.3330836160607
295,12.899976050623692,77.50295982879962,5.0,91.34140711101077,0.02,0.01,9.8,0.001,0.001,0.002,-0.747753329660472,-0.8784903254224027,91.34140711101077
296,12.899975815069833,77.50296982602495,5.0,91.34974903472278,0.02,0.01,9.8,0.001,0.001,0.002,-0.7105071199760853,-0.8852255977403576,91.34974903472278
297,12.89997557805724,77.50297982321581,5.0,91.35810929450878,0.02,0.01,9.8,0.001,0.001,0.002,-0.6729767169170084,-0.8917802148454583,91.35810929450878
298,12.899975339582737,77.5029898203719,5.0,91.36648779747709,0.02,0.01,9.8,0.001,0.001,0.002,-0.6351771321440697,-0.8981528390834941,91.36648779747709
299,12.89997509964316,77.50299981749293,5.0,91.37488445053332,0.02,0.01,9.8,0.001,0.001,0.002,-0.5971234849871871,-0.9043421699410238,91.37488445053332
300,12.899974858235366,77.50300981457862,5.0,91.3832991603814,0.02,0.01,9.8,0.001,0.001,0.002,-0.5588309963978517,-0.9103469443107827,91.3832991603814
301,12.899974615356223,77.50301981162868,5.0,91.39173183352464,0.02,0.01,9.8,0.001,0.001,0.002,-0.5203149828609378,-0.9161659367494549,91.39173183352464
302,12.899974371002621,77.5030298086428,5.0,91.40018237626677,0.02,0.01,9.8,0.001,0.001,0.002,-0.4815908502683184,-0.9217979597277594,91.40018237626677
303,12.899974125171461,77.50303980562069,5.0,91.40865069471295,0.02,0.01,9.8,0.001,0.001,0.002,-0.44267408775671907,-0.9272418638727987,91.40865069471295
304,12.899973877859665,77.50304980256206,5.0,91.41713669477083,0.02,0.01,9.8,0.001,0.001,0.002,-0.4035802615122578,-0.9324965382026218,91.41713669477083
305,12.89997362906417,77.50305979946663,5.0,91.42564028215163,0.02,0.01,9.8,0.001,0.001,0.002,-0.36432500854419175,-0.9375609103529496,91.42564028215163
306,12.89997337878193,77.50306979633407,5.0,91.43416136237113,0.02,0.01,9.8,0.001,0.001,0.002,-0.3249240304303084,-0.9424339467960229,91.43416136237113
307,12.899973127009913,77.50307979316412,5.0,91.44269984075073,0.02,0.01,9.8,0.001,0.001,0.002,-0.28539308703651717,-0.9471146530515215,91.44269984075073
308,12.899972873745106,77.50308978995645,5.0,91.45125562241856,0.02,0.01,9.8,0.001,0.001,0.002,-0.2457479902131001,-0.9516020738895161,91.45125562241856
309,12.899972618984515,77.50309978671078,5.0,91.45982861231045,0.02,0.01,9.8,0.001,0.001,0.002,-0.2060045974701957,-0.9558952935254104,91.45982861231045
310,12.899972362725157,77.5031097834268,5.0,91.46841871517104,0.02,0.01,9.8,0.001,0.001,0.002,-0.1661788056349928,-0.9599934358068326,91.46841871517104
311,12.899972104964068,77.5031197801042,5.0,91.47702583555484,0.02,0.01,9.8,0.001,0.001,0.002,-0.12628654449322554,-0.9638956643924387,91.47702583555484
312,12.899971845698303,77.5031297767427,5.0,91.48564987782727,0.02,0.01,9.8,0.001,0.001,0.002,-0.08634377041745736,-0.9676011829225916,91.48564987782727
313,12.899971584924932,77.50313977334199,5.0,91.49429074616573,0.02,0.01,9.8,0.001,0.001,0.002,-0.0463664599847589,-0.9711092351818807,91.49429074616573
314,12.899971322641044,77.50314976990175,5.0,91.50294834456065,0.02,0.01,9.8,0.001,0.001,0.002,-0.006370603586275981,-0.9744191052534494,91.50294834456065
315,12.89997105884374,77.5031597664217,5.0,91.51162257681659,0.02,0.01,9.8,0.001,0.001,0.002,0.033627800968699426,-0.977530117665097,91.51162257681659
316,12.89997079353014,77.50316976290152,5.0,91.52031334655328,0.02,0.01,9.8,0.001,0.001,0.002,0.07361275485165383,-0.9804416375271291,91.52031334655328
317,12.899970526697384,77.5031797593409,5.0,91.52902055720669,0.02,0.01,9.8,0.001,0.001,0.002,0.1135682646141561,-0.9831530706619238,91.52902055720669
318,12.899970258342625,77.50318975573953,5.0,91.53774411203014,0.02,0.01,9.8,0.001,0.001,0.002,0.15347834858503784,-0.985663863725191,91.53774411203014
319,12.899969988463036,77.50319975209712,5.0,91.54648391409532,0.02,0.01,9.8,0.001,0.001,0.002,0.19332704326283448,-0.9879735043188972,91.54648391409532
320,12.899969717055805,77.50320974841334,5.0,91.55523986629342,0.02,0.01,9.8,0.001,0.001,0.002,0.23309840970098727,-0.9900815210958355,91.55523986629342
321,12.899969444118137,77.5032197446879,5.0,91.56401187133616,0.02,0.01,9.8,0.001,0.001,0.002,0.2727765398831953,-0.9919874838558168,91.56401187133616
322,12.899969169647255,77.50322974092047,5.0,91.57279983175692,0.02,0.01,9.8,0.001,0.001,0.002,0.3123455630864238,-0.9936910036334644,91.57279983175692
323,12.899968893640398,77.50323973711076,5.0,91.58160364991178,0.02,0.01,9.8,0.001,0.001,0.002,0.351789652228968,-0.9951917327775933,91.58160364991178
324,12.899968616094826,77.50324973325844,5.0,91.59042322798064,0.02,0.01,9.8,0.001,0.001,0.002,0.3910930302010885,-0.9964893650221585,91.59042322798064
325,12.89996833700781,77.50325972936321,5.0,91.59925846796826,0.02,0.01,9.8,0.001,0.001,0.002,0.43023997617563103,-0.9975836355487562,91.59925846796826
326,12.899968056376641,77.50326972542474,5.0,91.6081092717054,0.02,0.01,9.8,0.001,0.001,0.002,0.46921483189615987,-0.998474321040669,91.6081092717054
327,12.89996777419863,77.50327972144272,5.0,91.6169755408499,0.02,0.01,9.8,0.001,0.001,0.002,0.5080020079400462,-0.999161239728439,91.6169755408499
328,12.899967490471102,77.50328971741685,5.0,91.62585717688773,0.02,0.01,9.8,0.001,0.001,0.002,0.5465859899540247,-0.9996442514269628,91.62585717688773
329,12.8999672051914,77.50329971334679,5.0,91.63475408113416,0.02,0.01,9.8,0.001,0.001,0.002,0.5849513448597394,-0.9999232575641008,91.63475408113416
330,12.899966918356885,77.50330970923224,5.0,91.64366615473477,0.02,0.01,9.8,0.001,0.001,0.002,0.6230827270267557,-0.9999982012007936,91.64366615473477
331,12.899966629964933,77.50331970507288,5.0,91.65259329866663,0.02,0.01,9.8,0.001,0.001,0.002,0.6609648844106218,-0.9998690670426814,91.65259329866663
332,12.89996634001294,77.50332970086839,5.0,91.66153541373933,0.02,0.01,9.8,0.001,0.001,0.002,0.6985826646534697,-0.9995358814432258,91.66153541373933
333,12.89996604849832,77.50333969661845,5.0,91.67049240059613,0.02,0.01,9.8,0.001,0.001,0.002,0.7359210211447693,-0.9989987123983316,91.67049240059613
334,12.8999657554185,77.50334969232274,5.0,91.67946415971505,0.02,0.01,9.8,0.001,0.001,0.002,0.7729650190397587,-0.9982576695324701,91.67946415971505
335,12.899965460770929,77.50335968798095,5.0,91.68845059140997,0.02,0.01,9.8,0.001,0.001,0.002,0.8096998412331966,-0.9973129040763072,91.68845059140997
336,12.899965164553073,77.50336968359274,5.0,91.69745159583174,0.02,0.01,9.8,0.001,0.001,0.002,0.8461107942859937,-0.9961646088358407,91.69745159583174
337,12.899964866762414,77.50337967915779,5.0,91.70646707296929,0.02,0.01,9.8,0.001,0.001,0.002,0.8821833143024047,-0.9948130181530525,91.70646707296929
338,12.89996456739645,77.50338967467579,5.0,91.71549692265074,0.02,0.01,9.8,0.001,0.001,0.002,0.9179029727553806,-0.9932584078580848,91.71549692265074
339,12.899964266452702,77.50339967014641,5.0,91.72454104454454,0.02,0.01,9.8,0.001,0.001,0.002,0.953255482257799,-0.9915010952129492,91.72454104454454
340,12.899963963928704,77.50340966556932,5.0,91.73359933816052,0.02,0.01,9.8,0.001,0.001,0.002,0.9882267022772163,-0.98954143884678,91.73359933816052
341,12.899963659822006,77.5034196609442,5.0,91.74267170285106,0.02,0.01,9.8,0.001,0.001,0.002,1.0228026447919047,-0.9873798386826466,91.74267170285106
342,12.899963354130183,77.50342965627074,5.0,91.75175803781221,0.02,0.01,9.8,0.001,0.001,0.002,1.0569694798858615,-0.9850167358559369,91.75175803781221
343,12.89996304685082,77.50343965154859,5.0,91.7608582420848,0.02,0.01,9.8,0.001,0.001,0.002,1.090713541280604,-0.9824526126243325,91.7608582420848
344,12.899962737981523,77.50344964677744,5.0,91.76997221455552,0.02,0.01,9.8,0.001,0.001,0.002,1.124021331801486,-0.9796879922693893,91.76997221455552
345,12.899962427519917,77.50345964195695,5.0,91.77909985395813,0.02,0.01,9.8,0.001,0.001,0.002,1.1568795287764002,-0.9767234389897476,91.77909985395813
346,12.899962115463643,77.50346963708681,5.0,91.78824105887449,0.02,0.01,9.8,0.001,0.001,0.002,1.1892749893646573,-0.9735595577859917,91.78824105887449
347,12.89996180181036,77.50347963216667,5.0,91.79739572773575,0.02,0.01,9.8,0.001,0.001,0.002,1.2211947558139582,-0.9701969943371821,91.79739572773575
348,12.899961486557745,77.50348962719623,5.0,91.80656375882346,0.02,0.01,9.8,0.001,0.001,0.002,1.2526260606433117,-0.9666364348690867,91.80656375882346
349,12.899961169703491,77.50349962217514,5.0,91.8157450502707,0.02,0.01,9.8,0.001,0.001,0.002,1.2835563317498675,-0.9628786060141369,91.8157450502707
350,12.899960851245314,77.50350961710308,5.0,91.82493950006324,0.02,0.01,9.8,0.001,0.001,0.002,1.3139731974375781,-0.9589242746631385,91.82493950006324
351,12.899960531180943,77.5035196119797,5.0,91.8341470060406,0.02,0.01,9.8,0.001,0.001,0.002,1.343864491365723,-0.9547742478087649,91.8341470060406
352,12.899960209508126,77.50352960680469,5.0,91.84336746589726,0.02,0.01,9.8,0.001,0.001,0.002,1.373218257415277,-0.9504293723808684,91.84336746589726
353,12.899959886224632,77.50353960157771,5.0,91.85260077718375,0.02,0.01,9.8,0.001,0.001,0.002,1.4020227544711963,-0.9458905350736402,91.85260077718375
354,12.899959561328243,77.50354959629844,5.0,91.86184683730784,0.02,0.01,9.8,0.001,0.001,0.002,1.4302664611187157,-0.9411586621646548,91.86184683730784
355,12.899959234816762,77.50355959096653,5.0,91.87110554353559,0.02,0.01,9.8,0.001,0.001,0.002,1.4579380802517519,-0.9362347193258382,91.87110554353559
356,12.89995890668801,77.50356958558166,5.0,91.8803767929926,0.02,0.01,9.8,0.001,0.001,0.002,1.4850265435916035,-0.9311197114263939,91.8803767929926
357,12.899958576939826,77.50357958014348,5.0,91.8896604826651,0.02,0.01,9.8,0.001,0.001,0.002,1.5115210161141075,-0.9258146823277325,91.8896604826651
358,12.899958245570065,77.50358957465167,5.0,91.89895650940105,0.02,0.01,9.8,0.001,0.001,0.002,1.5374109003835117,-0.9203207146704409,91.89895650940105
359,12.899957912576603,77.5035995691059,5.0,91.90826476991137,0.02,0.01,9.8,0.001,0.001,0.002,1.5626858407913,-0.9146389296533399,91.90826476991137
360,12.899957577957332,77.50360956350583,5.0,91.91758516077104,0.02,0.01,9.8,0.001,0.001,0.002,1.5873357276983062,-0.908770486804673,91.91758516077104
361,12.899957241710164,77.50361955785112,5.0,91.92691757842026,0.02,0.01,9.8,0.001,0.001,0.002,1.6113507014784265,-0.9027165837454694,91.92691757842026
362,12.899956903833028,77.50362955214145,5.0,91.93626191916559,0.02,0.01,9.8,0.001,0.001,0.002,1.6347211564623458,-0.8964784559451378,91.93626191916559
363,12.89995656432387,77.50363954637646,5.0,91.94561807918112,0.02,0.01,9.8,0.001,0.001,0.002,1.6574377447796707,-0.8900573764693335,91.94561807918112
364,12.899956223180657,77.50364954055583,5.0,91.95498595450961,0.02,0.01,9.8,0.001,0.001,0.002,1.6794913800979598,-0.8834546557201531,91.95498595450961
365,12.899955880401373,77.50365953467922,5.0,91.96436544106366,0.02,0.01,9.8,0.001,0.001,0.002,1.7008732412571288,-0.876671641168711,91.96436544106366
366,12.899955535984018,77.50366952874629,5.0,91.97375643462685,0.02,0.01,9.8,0.001,0.001,0.002,1.7215747757978035,-0.8697097170801488,91.97375643462685
367,12.899955189926615,77.50367952275671,5.0,91.9831588308549,0.02,0.01,9.8,0.001,0.001,0.002,1.7415877033821823,-0.8625703042311377,91.9831588308549
368,12.899954842227201,77.50368951671014,5.0,91.99257252527684,0.02,0.01,9.8,0.001,0.001,0.002,1.7609040191060688,-0.855254859619929,91.99257252527684
369,12.899954492883833,77.50369951060624,5.0,92.00199741329615,0.02,0.01,9.8,0.001,0.001,0.002,1.7795159967007192,-0.8477648761690126,92.00199741329615
370,12.899954141894584,77.50370950444467,5.0,92.01143339019197,0.02,0.01,9.8,0.001,0.001,0.002,1.7974161916232538,-0.8401018824204437,92.01143339019197
371,12.899953789257552,77.5037194982251,5.0,92.0208803511202,0.02,0.01,9.8,0.001,0.001,0.002,1.814597444034368,-0.8322674422239013,92.0208803511202
372,12.899953434970847,77.50372949194717,5.0,92.0303381911147,0.02,0.01,9.8,0.001,0.001,0.002,1.8310528816621792,-0.8242631544175401,92.0303381911147
373,12.8999530790326,77.50373948561057,5.0,92.03980680508845,0.02,0.01,9.8,0.001,0.001,0.002,1.8467759225510378,-0.8160906525017029,92.03980680508845
374,12.899952721440958,77.50374947921493,5.0,92.04928608783473,0.02,0.01,9.8,0.001,0.001,0.002,1.8617602776942273,-0.8077516043055588,92.04928608783473
375,12.899952362194089,77.50375947275994,5.0,92.05877593402829,0.02,0.01,9.8,0.001,0.001,0.002,1.8759999535494778,-0.7992477116467359,92.05877593402829
376,12.89995200129018,77.50376946624523,5.0,92.06827623822647,0.02,0.01,9.8,0.001,0.001,0.002,1.8894892544363076,-0.7905807099840169,92.06827623822647
377,12.899951638727433,77.50377945967048,5.0,92.07778689487046,0.02,0.01,9.8,0.001,0.001,0.002,1.902222784814218,-0.7817523680631696,92.07778689487046
378,12.899951274504074,77.50378945303535,5.0,92.08730779828636,0.02,0.01,9.8,0.001,0.001,0.002,1.914195451440834,-0.7727644875559871,92.08730779828636
379,12.899950908618344,77.5037994463395,5.0,92.09683884268648,0.02,0.01,9.8,0.001,0.001,0.002,1.9254024654091402,-0.7636189026926022,92.09683884268648
380,12.8999505410685,77.50380943958257,5.0,92.1063799221704,0.02,0.01,9.8,0.001,0.001,0.002,1.9358393440629726,-0.7543174798871631,92.1063799221704
381,12.899950171852824,77.50381943276423,5.0,92.11593093072625,0.02,0.01,9.8,0.001,0.001,0.002,1.9455019127900275,-0.7448621173569393,92.11593093072625
382,12.89994980096961,77.50382942588415,5.0,92.1254917622318,0.02,0.01,9.8,0.001,0.001,0.002,1.9543863066916458,-0.7352547447349358,92.1254917622318
383,12.899949428417175,77.50383941894198,5.0,92.13506231045568,0.02,0.01,9.8,0.001,0.001,0.002,1.9624889721287242,-0.7254973226760981,92.13506231045568
384,12.899949054193852,77.50384941193737,5.0,92.14464246905857,0.02,0.01,9.8,0.001,0.001,0.002,1.9698066681431217,-0.7155918424571849,92.14464246905857
385,12.899948678297996,77.50385940486998,5.0,92.15423213159436,0.02,0.01,9.8,0.001,0.001,0.002,1.9763364677540007,-0.7055403255703919,92.15423213159436
386,12.899948300727976,77.50386939773949,5.0,92.16383119151135,0.02,0.01,9.8,0.001,0.001,0.002,1.9820757591285796,-0.6953448233108097,92.16383119151135
387,12.899947921482184,77.50387939054553,5.0,92.1734395421534,0.02,0.01,9.8,0.001,0.001,0.002,1.9870222466268317,-0.6850074163577993,92.1734395421534
388,12.899947540559028,77.50388938328778,5.0,92.18305707676119,0.02,0.01,9.8,0.001,0.001,0.002,1.9911739517197096,-0.6745302143503702,92.18305707676119
389,12.899947157956936,77.50389937596589,5.0,92.1926836884733,0.02,0.01,9.8,0.001,0.001,0.002,1.9945292137805317,-0.66391535545665,92.1926836884733
390,12.899946773674355,77.5039093685795,5.0,92.20231927032746,0.02,0.01,9.8,0.001,0.001,0.002,1.99708669074921,-0.6531650059375308,92.20231927032746
391,12.899946387709749,77.50391936112828,5.0,92.21196371526179,0.02,0.01,9.8,0.001,0.001,0.002,1.9988453596690559,-0.642281359704582,92.21196371526179
392,12.899946000061602,77.50392935361191,5.0,92.22161691611585,0.02,0.01,9.8,0.001,0.001,0.002,1.9998045170959504,-0.6312666378723216,92.22161691611585
393,12.899945610728418,77.50393934603002,5.0,92.23127876563197,0.02,0.01,9.8,0.001,0.001,0.002,1.9999637793797111,-0.6201230883049351,92.23127876563197
